[
  {
    "id": 100000,
    "name": "Финансии",
    "agent_id": 47,
    "agent_name": "Државна Лотарија на Македонија",
    "city": "Скопје",
    "address": "бул. Гоце Делчев бр. 8",
    "telephone": "255-11-991",
    "latitude": 41.99719,
    "longitude": 21.44563
  },
  {
    "id": 100049,
    "name": "ДПТУ Тим Компани ДОО",
    "agent_id": 23,
    "agent_name": "ДПТУ Тим Компани Доо",
    "city": "Скопје",
    "address": "ул. Живко Брајковски лок.3 ламела 3 приземје",
    "telephone": "02/2615-696",
    "latitude": 42.03204468705215,
    "longitude": 21.445100595184385
  },
  {
    "id": 100069,
    "name": "Томи ас Кисела Вода 1",
    "agent_id": 29,
    "agent_name": "Томи ас Кисела Вода",
    "city": "Скопје",
    "address": "ул. Народни Херои б.б.",
    "telephone": "075/243-630",
    "latitude": 41.97666149527708,
    "longitude": 21.440359120198195
  },
  {
    "id": 100071,
    "name": "Асура Плус Влае",
    "agent_id": 35,
    "agent_name": "Асура Плус",
    "city": "Скопје",
    "address": "бул. Партизански Одреди  бр. 155",
    "telephone": "02/2033-355, 070/360-735",
    "latitude": 42.006347236717176,
    "longitude": 21.37577085656733
  },
  {
    "id": 100075,
    "name": "Вики бб 1",
    "agent_id": 45,
    "agent_name": "Вики бб",
    "city": "Скопје",
    "address": "ул. 9 б.б. ",
    "telephone": "02/2571-155, 075/442-615",
    "latitude": 41.99494584963991,
    "longitude": 21.579919149108864
  },
  {
    "id": 100077,
    "name": "АВОНА 1",
    "agent_id": 46,
    "agent_name": "АВОНА",
    "city": "Скопје",
    "address": "ул. Сава Ковачевиќ бр. 100",
    "telephone": "071/466-640",
    "latitude": 41.975710349866226,
    "longitude": 21.4462163941345
  },
  {
    "id": 100079,
    "name": "МПМ - Принт ЖАПУН",
    "agent_id": 50,
    "agent_name": "МПМ - Принт",
    "city": "Скопје",
    "address": "ул. Орце Николов бр. 155",
    "telephone": "02/3090-343;02/3090-344",
    "latitude": 42.003995369566844,
    "longitude": 21.415306617446845
  },
  {
    "id": 100082,
    "name": "Р.Е Ида",
    "agent_id": 51,
    "agent_name": "Р.Е Ида ДООЕЛ",
    "city": "Скопје",
    "address": "ул. Кочо Рацин б.б.",
    "telephone": "02/3217-221;077/590-400",
    "latitude": 41.988199731593056,
    "longitude": 21.43275975150675
  },
  {
    "id": 100087,
    "name": "Каем Авто Команда",
    "agent_id": 57,
    "agent_name": "Каем ДОО",
    "city": "Скопје",
    "address": "ул. Јани Лукровски бр. 10",
    "telephone": "070/375-811",
    "latitude": 42.002185568536866,
    "longitude": 21.46340398950193
  },
  {
    "id": 100088,
    "name": "Кораб Комерц",
    "agent_id": 58,
    "agent_name": "Кораб Комерц ДОО",
    "city": "Скопје",
    "address": "бул. Партизански Одреди б.б.",
    "telephone": "071/553-44702, 02/3078880",
    "latitude": 42.00145206623528,
    "longitude": 21.407785703369118
  },
  {
    "id": 100089,
    "name": "ММ-МАР-МАР 1",
    "agent_id": 60,
    "agent_name": "ММ-МАР-МАР",
    "city": "Скопје",
    "address": "ул. 11 Октомври б.б.",
    "telephone": "070/269-673",
    "latitude": 41.99201643431285,
    "longitude": 21.43383574585914
  },
  {
    "id": 100103,
    "name": "Нико Фон Т.Ц. Бисер",
    "agent_id": 27,
    "agent_name": "Нико Фон",
    "city": "Скопје",
    "address": "бул. Јане Сандански ТЦ Бисер",
    "telephone": "02/2450-483",
    "latitude": 41.98514540285198,
    "longitude": 21.465721418090766
  },
  {
    "id": 100117,
    "name": "АЛБЕРТО-А Чаир",
    "agent_id": 75,
    "agent_name": "АЛБЕРТО-А",
    "city": "Скопје",
    "address": "ул. Цветан Димов бр. 139",
    "telephone": "070-672-701",
    "latitude": 42.0097337,
    "longitude": 21.4439952
  },
  {
    "id": 100119,
    "name": "ВИМАКО ДОО Билна Аптека",
    "agent_id": 77,
    "agent_name": "ВИМАКО ДОО",
    "city": "Скопје",
    "address": "ул. 11 Октомври б.б.",
    "telephone": "070/598-300",
    "latitude": 41.98839112068226,
    "longitude": 21.436345864959694
  },
  {
    "id": 100122,
    "name": "МИШЕЛ КОМПАНИ Влае",
    "agent_id": 81,
    "agent_name": "МИШЕЛ КОМПАНИ",
    "city": "Скопје",
    "address": "ул. Партизански Одреди б.б.",
    "telephone": "070/272-446, 070-272-449, 076/462-602",
    "latitude": 42.00677773857847,
    "longitude": 21.37478380364988
  },
  {
    "id": 100125,
    "name": "МАКЕЈА ДООЕЛ Лептокарија",
    "agent_id": 84,
    "agent_name": "МАКЕЈА ДООЕЛ",
    "city": "Скопје",
    "address": "бул. Партизански Одреди бр. 66А дел. 13/зграда1 влез1",
    "telephone": "071/817-810",
    "latitude": 42.00280744429961,
    "longitude": 21.397314359374977
  },
  {
    "id": 100168,
    "name": "Т.П ГОГИ Кисела Вода",
    "agent_id": 67,
    "agent_name": "Т.П ГОГИ",
    "city": "Скопје",
    "address": "ул. Георги Димитров б.б.",
    "telephone": "070/242-395 2779-094",
    "latitude": 41.974354394741894,
    "longitude": 21.44095926446539
  },
  {
    "id": 100169,
    "name": "АГРОВАРДАР ПРОМЕТ Ново Лисиче",
    "agent_id": 106,
    "agent_name": "АГРОВАРДАР ПРОМЕТ",
    "city": "Скопје",
    "address": "бул. Видео Смилевски Бато бр. 51 влез 1 приземје локал бр. 2",
    "telephone": "070/234-769",
    "latitude": 41.985695671331946,
    "longitude": 21.482029248901426
  },
  {
    "id": 100172,
    "name": "ММ-МАР-МАР Правда",
    "agent_id": 60,
    "agent_name": "ММ-МАР-МАР",
    "city": "Скопје",
    "address": "ул. Димитрија Чуповски бр. 5",
    "telephone": "070/269-673",
    "latitude": 41.99496179706243,
    "longitude": 21.42900734109503
  },
  {
    "id": 100173,
    "name": "ХРИСТЕФ ДООЕЛ - Радишани",
    "agent_id": 112,
    "agent_name": "ХРИСТЕФ ДООЕЛ",
    "city": "Скопје",
    "address": "ул. Радишанска б.б., ТЦ Радишани лок.1/1",
    "telephone": "071/252-910",
    "latitude": 42.06284561657376,
    "longitude": 21.45121603173834
  },
  {
    "id": 100174,
    "name": "РАЛЕКС Виолета ДООЕЛ - Волково",
    "agent_id": 113,
    "agent_name": "РАЛЕКС Виолета ДООЕЛ",
    "city": "Скопје",
    "address": "ул. 100 бр. 63",
    "telephone": "076/482-184",
    "latitude": 42.041240320069875,
    "longitude": 21.34684591455084
  },
  {
    "id": 100175,
    "name": "ГАБЕРЦИ-ТРЕЈД - Бит Пазар",
    "agent_id": 114,
    "agent_name": "ГАБЕРЦИ-ТРЕЈД ДООЕЛ",
    "city": "Скопје",
    "address": "бул. Крсте Мисирков бр. 63",
    "telephone": "077/878-955",
    "latitude": 42.00261609855844,
    "longitude": 21.439585973449766
  },
  {
    "id": 100176,
    "name": "Т.П. ГОГИ - Драчево",
    "agent_id": 67,
    "agent_name": "Т.П ГОГИ",
    "city": "Скопје",
    "address": "ул. Ратко Митровиќ б.б.",
    "telephone": "070/242-395 2779094",
    "latitude": 41.94047805689742,
    "longitude": 21.51264934701544
  },
  {
    "id": 100180,
    "name": "ЕЛ-ДЕ ТРЕЈД-Автокоманда",
    "agent_id": 120,
    "agent_name": "ЕЛ-ДЕ ТРЕЈД ДООЕЛ",
    "city": "Скопје",
    "address": "ул. Јани Лукровски бр. 5",
    "telephone": "071/336-066",
    "latitude": 42.00273,
    "longitude": 21.46487
  },
  {
    "id": 100187,
    "name": "БАПКА НОЌЕ 96",
    "agent_id": 128,
    "agent_name": "БАПКА НОЌЕ 96 ДООЕЛ",
    "city": "Скопје",
    "address": "ул. Париска Комуна бр. 14/2-9",
    "telephone": "075/435-833",
    "latitude": 41.99531263934606,
    "longitude": 21.509516526886046
  },
  {
    "id": 100190,
    "name": "БП ОБЕЛИКС",
    "agent_id": 135,
    "agent_name": "БП ОБЕЛИКС ДОО",
    "city": "Скопје",
    "address": "бул. Партизански Одреди б.б.",
    "telephone": "070/957-502, 02/3071-502",
    "latitude": 42.0026938,
    "longitude": 21.399692206884765
  },
  {
    "id": 100191,
    "name": "ДАРЈАН",
    "agent_id": 136,
    "agent_name": "ДАРЈАН ДООЕЛ",
    "city": "Скопје",
    "address": "ул. Благоја Стефковски б.б.",
    "telephone": "070/622-561",
    "latitude": 41.997426000000004,
    "longitude": 21.49541534550781
  },
  {
    "id": 100192,
    "name": "ЕЛ ПРОМ ПРО Козле",
    "agent_id": 150,
    "agent_name": "ЕЛ ПРОМ ПРО ДООЕЛ",
    "city": "Скопје",
    "address": "ул. Козле бр. 88",
    "telephone": "02/3082-500, 070/227-124",
    "latitude": 41.99463906053311,
    "longitude": 21.399269199999935
  },
  {
    "id": 100199,
    "name": "Толлакс Скопјанка",
    "agent_id": 95,
    "agent_name": "Толлакс",
    "city": "Скопје",
    "address": "бул. Кузман Јосифовски Питу б.б.",
    "telephone": "075/426-881 075/426-882",
    "latitude": 41.98901313124826,
    "longitude": 21.450687636562407
  },
  {
    "id": 100200,
    "name": "Толлакс Собрание",
    "agent_id": 95,
    "agent_name": "Толлакс",
    "city": "Скопје",
    "address": "ул. Даме Груев бр. 1",
    "telephone": "075/426-881 075/426-882",
    "latitude": 41.99209841909203,
    "longitude": 21.431973865606665
  },
  {
    "id": 100201,
    "name": "Толлакс Плоштад",
    "agent_id": 95,
    "agent_name": "Толлакс",
    "city": "Скопје",
    "address": "ул. Маршал Тито бр. 1",
    "telephone": "075/426-881 075/426-882",
    "latitude": 41.993590304123806,
    "longitude": 21.43029480142218
  },
  {
    "id": 100202,
    "name": "Толлакс Телеком",
    "agent_id": 95,
    "agent_name": "Толлакс",
    "city": "Скопје",
    "address": "ул. Орце Николов бр. 20",
    "telephone": "075/426-881 075/426-882",
    "latitude": 42.001659361221144,
    "longitude": 21.420896341033995
  },
  {
    "id": 100207,
    "name": "ВЕНЕРА ТБ ВЕСНА Тафталиџе",
    "agent_id": 176,
    "agent_name": "ВЕНЕРА ТБ ВЕСНА ДОО",
    "city": "Скопје",
    "address": "ул. Московска б.б.",
    "telephone": "070/267-150",
    "latitude": 42.00139875165864,
    "longitude": 21.389485299999933
  },
  {
    "id": 100209,
    "name": "ПАРАГЛАЈДЕР",
    "agent_id": 178,
    "agent_name": "ПАРАГЛАЈДЕР ДООЕЛ",
    "city": "Скопје",
    "address": "ул. Димитрија Чуповски бр. 15",
    "telephone": "3111-655 и 070/333-127",
    "latitude": 41.9947177,
    "longitude": 21.430019
  },
  {
    "id": 100214,
    "name": "СФАКИЌ ТЕКС Топанско поле",
    "agent_id": 181,
    "agent_name": "СФАКИЌ ТЕКС ДООЕЛ",
    "city": "Скопје",
    "address": "ул. Методиј Митевски бр. б.б. ТЦ/Рајко Жинзифов",
    "telephone": "078/282-078",
    "latitude": 42.02151776704374,
    "longitude": 21.43231128650814
  },
  {
    "id": 100215,
    "name": "САДЕ-С ДООЕЛ Партизанска",
    "agent_id": 182,
    "agent_name": "САДЕ-С ДООЕЛ 1",
    "city": "Скопје",
    "address": "бул. Партизански Одреди б.б.",
    "telephone": "075/292-340; 078/292-340",
    "latitude": 42.00345917857738,
    "longitude": 21.3988339
  },
  {
    "id": 100216,
    "name": "САДЕ-С ДООЕЛ Дебар Мало",
    "agent_id": 182,
    "agent_name": "САДЕ-С ДООЕЛ 1",
    "city": "Скопје",
    "address": "ул. Михаил Цоков б.б. локал бр. 29",
    "telephone": "075/292-340; 078/292-340",
    "latitude": 42.001714188895725,
    "longitude": 21.421263359432942
  },
  {
    "id": 100217,
    "name": "ЈМБ КОМПАНИ Визбегово",
    "agent_id": 183,
    "agent_name": "ЈМБ КОМПАНИ ДООЕЛ",
    "city": "Скопје",
    "address": "ул. 2 бр. 116",
    "telephone": "075/454-396;02/2650-732",
    "latitude": 42.03335991757711,
    "longitude": 21.413901565856918
  },
  {
    "id": 100226,
    "name": "Денеса-Тобако Апче",
    "agent_id": 191,
    "agent_name": "Денеса-Тобако ДОО",
    "city": "Скопје",
    "address": "ул. 29 -ти Ноември б.б.",
    "telephone": "02/3224-044;070/498-809;078/234-916",
    "latitude": 42.0002400370132,
    "longitude": 21.417582680425994
  },
  {
    "id": 100230,
    "name": "САДЕ-С ДООЕЛ Рамстор",
    "agent_id": 182,
    "agent_name": "САДЕ-С ДООЕЛ 1",
    "city": "Скопје",
    "address": "ул. Мито Хаџивасилев Јасмин б.б.",
    "telephone": "075/292-340,078/292-340",
    "latitude": 41.992335666017034,
    "longitude": 21.425823595245333
  },
  {
    "id": 100231,
    "name": "МЕДИА ПРИНТ МАКЕДОНИЈА Плоштад",
    "agent_id": 206,
    "agent_name": "МЕДИА ПРИНТ МАКЕДОНИЈА",
    "city": "Скопје",
    "address": "ул. Никола Вапцаров бр. 2/1-2",
    "telephone": "070/441-444",
    "latitude": 41.99570455831489,
    "longitude": 21.430968028836105
  },
  {
    "id": 100236,
    "name": "РАЛЕКС Виолета ДООЕЛ - Волково 1",
    "agent_id": 113,
    "agent_name": "РАЛЕКС Виолета ДООЕЛ",
    "city": "Скопје",
    "address": "ул. 100 б.б. с.Волково",
    "telephone": "076/482-184",
    "latitude": 42.0451783,
    "longitude": 21.3459871
  },
  {
    "id": 100239,
    "name": "ЏОНИ СМОКЕР ДООЕЛ Капиштец",
    "agent_id": 224,
    "agent_name": "ЏОНИ СМОКЕР ДООЕЛ",
    "city": "Скопје",
    "address": "ул. Франклин Рузвелт бр. 8",
    "telephone": "072/316-402 и 02/3131069",
    "latitude": 41.994521,
    "longitude": 21.411805
  },
  {
    "id": 100244,
    "name": "КАПАЕЛ ТОБАКО",
    "agent_id": 231,
    "agent_name": "КАПАЕЛ ТОБАКО ДООЕЛ",
    "city": "Скопје",
    "address": "ул. Пиринска бр. 48/локал 6",
    "telephone": "071/249-153",
    "latitude": 41.999911,
    "longitude": 21.424046
  },
  {
    "id": 100245,
    "name": "КОРУН МАРКЕТ",
    "agent_id": 232,
    "agent_name": "КОРУН МАРКЕТ",
    "city": "Скопје",
    "address": "ул. Димитар Благоев бр. 1-А",
    "telephone": "072/223-978",
    "latitude": 41.97223,
    "longitude": 21.477916
  },
  {
    "id": 100268,
    "name": "КАМИ Ж Железара",
    "agent_id": 247,
    "agent_name": "КАМИ Ж ТП",
    "city": "Скопје",
    "address": "ул. Коце Металец бр. 2б",
    "telephone": "077/956-080",
    "latitude": 42.0102222,
    "longitude": 21.4602742
  },
  {
    "id": 100269,
    "name": "ПИНГВИН-М.М-КОМПАНИ Водњанска",
    "agent_id": 248,
    "agent_name": "ПИНГВИН-М.М-КОМПАНИ",
    "city": "Скопје",
    "address": "ул. Водњанска б.б.",
    "telephone": "070/233-474",
    "latitude": 41.9921921,
    "longitude": 21.4235973
  },
  {
    "id": 100272,
    "name": "ТАК ТОБАКО",
    "agent_id": 253,
    "agent_name": "ТАК ТОБАКО ДООЕЛ",
    "city": "Скопје",
    "address": "бул. Партизански Одреди бр. 104б",
    "telephone": "072/228-156",
    "latitude": 42.004088,
    "longitude": 21.398606
  },
  {
    "id": 100273,
    "name": "АЛЕМАРК 777 Авто Команда",
    "agent_id": 254,
    "agent_name": "АЛЕМАРК 777 ДООЕЛ",
    "city": "Скопје",
    "address": "ул. Александар Македонски б.б.",
    "telephone": "070/878-357",
    "latitude": 41.9959272,
    "longitude": 21.431478
  },
  {
    "id": 100274,
    "name": "Толлакс Бисер",
    "agent_id": 95,
    "agent_name": "Толлакс",
    "city": "Скопје",
    "address": "бул. Јане Сандански бр. 82/ТЦ Бисер-локал 59",
    "telephone": "075/426-881 075/426-882",
    "latitude": 41.98527,
    "longitude": 21.465501
  },
  {
    "id": 100292,
    "name": "ЗАФИРА ТАБАКОС ГТЦ",
    "agent_id": 257,
    "agent_name": "ЗАФИРА ТАБАКОС ДООЕЛ",
    "city": "Скопје",
    "address": "ул. Кеј 13-ти Ноември бр.2",
    "telephone": "075/352-324",
    "latitude": 41.994712,
    "longitude": 21.437489
  },
  {
    "id": 100293,
    "name": "ДИРЕКТ ЛТД Хром",
    "agent_id": 258,
    "agent_name": "ДИРЕКТ ЛТД ДООЕЛ",
    "city": "Скопје",
    "address": "ул. Воин Драшковиќ б.б.",
    "telephone": "077/523-888",
    "latitude": 42.004144,
    "longitude": 21.36963
  },
  {
    "id": 100309,
    "name": "АЛКА-Ц.В. Ново Лисиче",
    "agent_id": 265,
    "agent_name": "АЛКА-Ц.В. ДОО",
    "city": "Скопје",
    "address": "бул. АСНОМ бр.18/4-1",
    "telephone": "071/318-730",
    "latitude": 41.985047,
    "longitude": 21.479208
  },
  {
    "id": 100311,
    "name": "АНГО ТОБАКО Маџари",
    "agent_id": 267,
    "agent_name": "АН-ГО 2014 ДОО",
    "city": "Скопје",
    "address": "ул. 51 Маџари",
    "telephone": "076/461-789",
    "latitude": 42.00125,
    "longitude": 21.502193
  },
  {
    "id": 100312,
    "name": "Толлакс Македонија",
    "agent_id": 95,
    "agent_name": "Толлакс",
    "city": "Скопје",
    "address": "ул. Луј Пастер бр.1-3",
    "telephone": "075/426-881,075/426-882",
    "latitude": 41.995358,
    "longitude": 21.431192
  },
  {
    "id": 100318,
    "name": "КАНАЈА МАРКЕТ",
    "agent_id": 276,
    "agent_name": "КАНАЈА МАРКЕТ ДООЕЛ",
    "city": "Скопје",
    "address": "ул. Борис Трајковски бр. 13/2",
    "telephone": "078/300-171 075/296-736",
    "latitude": 41.958804,
    "longitude": 21.473676
  },
  {
    "id": 120011,
    "name": "ТД-МИШЕ НБМ 1",
    "agent_id": 42,
    "agent_name": "ТД-МИШЕ НБМ",
    "city": "Тетово",
    "address": "ул. Маршал тито бр. 52",
    "telephone": "075/297-327",
    "latitude": 42.007236913170445,
    "longitude": 20.97587561376953
  },
  {
    "id": 120023,
    "name": "ДЕТЕКТИВ БРОЈ 001 Тетово Веро",
    "agent_id": 243,
    "agent_name": "ДЕТЕКТИВ БРОЈ 001 ДООЕЛ",
    "city": "Тетово",
    "address": "ул. Борис Кидрич б.б.",
    "telephone": "044/334-022",
    "latitude": 42.0089851,
    "longitude": 20.9792003
  },
  {
    "id": 120241,
    "name": "МА-ДЕ-БЕ Тетово",
    "agent_id": 229,
    "agent_name": "МА-ДЕ-БЕ ДООЕЛ",
    "city": "Тетово",
    "address": "ул. Тодор Циповски - Мерџан барака бр. 2",
    "telephone": "070/259-838",
    "latitude": 42.011032,
    "longitude": 20.969691
  },
  {
    "id": 123001,
    "name": "Јотон Среќа",
    "agent_id": 7,
    "agent_name": "Јотон Среќа",
    "city": "Гостивар",
    "address": "ул. Гоце Делчев бр. 104",
    "telephone": "075/425-559, 042/211-051",
    "latitude": 41.79633599437557,
    "longitude": 20.910907433837885
  },
  {
    "id": 123007,
    "name": "Блек Топ Ком",
    "agent_id": 53,
    "agent_name": "Блек Топ Ком ДООЕЛ",
    "city": "Гостивар",
    "address": "ул. Сретко Крстески бр. 1",
    "telephone": "071/206-440",
    "latitude": 41.79937537019228,
    "longitude": 20.91328923544311
  },
  {
    "id": 123010,
    "name": "ТОБАCCО-АДЕ Гостивар",
    "agent_id": 207,
    "agent_name": "ТОБАCCО-АДЕ",
    "city": "Гостивар",
    "address": "ул. ЈНА бр1",
    "telephone": "070/421-028",
    "latitude": 41.794835,
    "longitude": 20.8971669
  },
  {
    "id": 125005,
    "name": "ГО-САН дооел",
    "agent_id": 64,
    "agent_name": "ГО-САН дооел",
    "city": "Дебар",
    "address": "Маврови Анови",
    "telephone": "076/404-731",
    "latitude": 41.70318914416051,
    "longitude": 20.757348277246095
  },
  {
    "id": 125006,
    "name": "ТП АГНЕСА АМ - Дебар",
    "agent_id": 117,
    "agent_name": "ТП АГНЕСА АМ",
    "city": "Дебар",
    "address": "ул. Братство-Единство б.б.",
    "telephone": "070/914-212",
    "latitude": 41.52327735697588,
    "longitude": 20.52459266662595
  },
  {
    "id": 130007,
    "name": "КЕОПС ДООЕЛ",
    "agent_id": 22,
    "agent_name": "Кеопс Дооел",
    "city": "Куманово",
    "address": "ул. Маршал Тито б.б.",
    "telephone": "070/334-412",
    "latitude": 42.134864775511616,
    "longitude": 21.719091562118525
  },
  {
    "id": 130016,
    "name": "ЗМЛ-МЕН Куманово",
    "agent_id": 159,
    "agent_name": "ЗМЛ-МЕН ДООЕЛ",
    "city": "Куманово",
    "address": "ул. Народна Револуција б.б.",
    "telephone": "075/759-727",
    "latitude": 42.13116465925369,
    "longitude": 21.718517799999972
  },
  {
    "id": 130018,
    "name": "ВИВ-ШПЕД Куманово",
    "agent_id": 198,
    "agent_name": "ВИВ-ШПЕД",
    "city": "Куманово",
    "address": "ул. Плоштад Маршал Тито згр.1",
    "telephone": "070/402-276,031/432-418",
    "latitude": 42.1358333,
    "longitude": 21.7180556
  },
  {
    "id": 130019,
    "name": "ТП ПАВЕЛ ТОБАКО Куманово",
    "agent_id": 212,
    "agent_name": "ТП ПАВЕЛ ТОБАКО",
    "city": "Куманово",
    "address": "ул. 11 Октомври бр. 43",
    "telephone": "070/553-149",
    "latitude": 42.1386203,
    "longitude": 21.7157918
  },
  {
    "id": 130024,
    "name": "ВИТА ПРЕСС Куманово",
    "agent_id": 264,
    "agent_name": "ВИТА ПРЕСС ДООЕЛ",
    "city": "Куманово",
    "address": "ул. Маршал Тито бр. 55",
    "telephone": "070/554-636",
    "latitude": 42.135615,
    "longitude": 21.719927
  },
  {
    "id": 133003,
    "name": "ТП-ТЕДИ-АН-РИО Крива Паланка",
    "agent_id": 192,
    "agent_name": "ТП-ТЕДИ-АН-РИО",
    "city": "Крива Паланка",
    "address": "ул. Јоаким Осоговски б.б.",
    "telephone": "070/457-108;031/372-372",
    "latitude": 42.20329456965993,
    "longitude": 22.333768813830602
  },
  {
    "id": 136004,
    "name": "ТОБАКО ДАРМИС ДООЕЛ Кратово",
    "agent_id": 211,
    "agent_name": "ТОБАКО ДАРМИС ДООЕЛ",
    "city": "Кратово",
    "address": "ул. Св. Ѓорѓи Кратовски б.б.",
    "telephone": "071/315-086",
    "latitude": 42.079432,
    "longitude": 22.17958
  },
  {
    "id": 140006,
    "name": "Лото 77",
    "agent_id": 59,
    "agent_name": "Лото 77 ДООЕЛ",
    "city": "Велес",
    "address": "ул. Благој Ѓорев б.б.",
    "telephone": "070/216-351",
    "latitude": 41.71426596835366,
    "longitude": 21.766403921490483
  },
  {
    "id": 140015,
    "name": "ЛЕДИ-ДИ-ТРЕЈД Велес",
    "agent_id": 167,
    "agent_name": "ЛЕДИ-ДИ-ТРЕЈД",
    "city": "Велес",
    "address": "ул. Благој Ѓорев б.б.",
    "telephone": "071/315-212",
    "latitude": 41.716172504585565,
    "longitude": 21.772134793701184
  },
  {
    "id": 142002,
    "name": "ЛАЛЕКОМЕРЦ96 Градско",
    "agent_id": 149,
    "agent_name": "ЛАЛЕКОМЕРЦ96",
    "city": "Градско",
    "address": "ул. Маршал Тито б.б.",
    "telephone": "077/486-099, 043/251-099",
    "latitude": 41.57437334269199,
    "longitude": 21.945480120654338
  },
  {
    "id": 143013,
    "name": "БРАВО НУТС Кавадарци",
    "agent_id": 186,
    "agent_name": "БРАВО НУТС",
    "city": "Кавадарци",
    "address": "ул. Пано Мудровски бр. 13",
    "telephone": "071/250-660",
    "latitude": 41.434201,
    "longitude": 22.014667
  },
  {
    "id": 143015,
    "name": "СИГМА-Т ДООЕЛ Кавадарци",
    "agent_id": 216,
    "agent_name": "СИГМА-Т ДООЕЛ",
    "city": "Кавадарци",
    "address": "ул. 7 Септември бр. 32",
    "telephone": "071/553-544",
    "latitude": 41.4343395,
    "longitude": 22.0153973
  },
  {
    "id": 143016,
    "name": "БРАВО НУТС Кавадарци 1",
    "agent_id": 186,
    "agent_name": "БРАВО НУТС",
    "city": "Кавадарци",
    "address": "ул. Пано Мудровски бр. 13",
    "telephone": "071/250-660",
    "latitude": 41.43178889323101,
    "longitude": 22.010128021240234
  },
  {
    "id": 143018,
    "name": "БРАВО НУТС Кавадарци 2",
    "agent_id": 186,
    "agent_name": "БРАВО НУТС",
    "city": "Кавадарци",
    "address": "ул. 7-ми Септември",
    "telephone": "071/250-660",
    "latitude": 41.4343395,
    "longitude": 22.0153973
  },
  {
    "id": 143020,
    "name": "БРАВО НУТС Кавадарци 3",
    "agent_id": 186,
    "agent_name": "БРАВО НУТС",
    "city": "Кавадарци",
    "address": "ул. Илинденска бр. 115",
    "telephone": "071/250-660",
    "latitude": 41.436501,
    "longitude": 22.011074
  },
  {
    "id": 144006,
    "name": "Корзо Неготино",
    "agent_id": 98,
    "agent_name": "Корзо",
    "city": "Неготино",
    "address": "ул. Даме Груев бр. 2",
    "telephone": "043/365-444",
    "latitude": 41.48425682582527,
    "longitude": 22.089796447753884
  },
  {
    "id": 144008,
    "name": "РИКО МАК Неготино",
    "agent_id": 252,
    "agent_name": "РИКО МАК ДООЕЛ",
    "city": "Неготино",
    "address": "ул. Страшо Пинџур б.б.",
    "telephone": "075/999-992",
    "latitude": 41.482975,
    "longitude": 22.092344
  },
  {
    "id": 148003,
    "name": "Ми Ма Дооел",
    "agent_id": 21,
    "agent_name": "Ми Ма Дооел",
    "city": "Гевгелија",
    "address": "ул. Маршал Тито бр. 143",
    "telephone": "075/779-157",
    "latitude": 41.137864669411584,
    "longitude": 22.499442825317367
  },
  {
    "id": 148009,
    "name": "МОНТЕ-МК Гевгелија",
    "agent_id": 90,
    "agent_name": "МОНТЕ-МК",
    "city": "Гевгелија",
    "address": "ул. 7-ми Ноември бр. 74",
    "telephone": "075/238-023",
    "latitude": 41.14143601852329,
    "longitude": 22.50182462692259
  },
  {
    "id": 148012,
    "name": "Риви - Богданци",
    "agent_id": 115,
    "agent_name": "РИВИ",
    "city": "Богданци",
    "address": "ул. Маршал Тито б.б.",
    "telephone": "034/223-115, 071/527-851, 070/662-176, 076/532-600",
    "latitude": 41.2035076393602,
    "longitude": 22.577358044458038
  },
  {
    "id": 148013,
    "name": "ЏИНОВ АМГ -Нов Дојран",
    "agent_id": 116,
    "agent_name": "ЏИНОВ АМГ ДООЕЛ",
    "city": "Нов Дојран",
    "address": "ул. Маршал Тито б.б.",
    "telephone": "071/263-142, 071/641-242",
    "latitude": 41.21905130472242,
    "longitude": 22.705127622753935
  },
  {
    "id": 148015,
    "name": "МОНТЕ-МК Гевгелија II",
    "agent_id": 90,
    "agent_name": "МОНТЕ-МК",
    "city": "Гевгелија",
    "address": "ул. 7-ми Ноември бр. 74",
    "telephone": "075/238-023",
    "latitude": 41.15,
    "longitude": 22.51
  },
  {
    "id": 148016,
    "name": "НТ-КИСТ с.Негорци",
    "agent_id": 227,
    "agent_name": "НТ-КИСТ ДООЕЛ",
    "city": "Негорци",
    "address": "ул. Гоце Делчев бр. 17 с.Негорци",
    "telephone": "071/309-670",
    "latitude": 41.183681,
    "longitude": 22.478327
  },
  {
    "id": 148017,
    "name": "ЛЕ-НИ-ПЛУС Гевгелија",
    "agent_id": 239,
    "agent_name": "ЛЕ-НИ-ПЛУС ДООЕЛ",
    "city": "Гевгелија",
    "address": "ул. Слободан Митров - Данко бр. 88",
    "telephone": "070/303-422",
    "latitude": 41.1430411,
    "longitude": 22.5016018
  },
  {
    "id": 148019,
    "name": "КИОСК МАРИНА Гевгелија",
    "agent_id": 269,
    "agent_name": "КИОСК МАРИНА ТП",
    "city": "Гевгелија",
    "address": "ул. Гевгелиски Партизански Одреди бр.6",
    "telephone": "078/826-565 075/586-899",
    "latitude": 41.141853,
    "longitude": 22.50285
  },
  {
    "id": 148020,
    "name": "ЛОГОСПЛУС Гевгелија",
    "agent_id": 270,
    "agent_name": "ЛОГОСПЛУС",
    "city": "Гевгелија",
    "address": "ул. 7-ми Ноември бр.6",
    "telephone": "077/666-484",
    "latitude": 41.143663,
    "longitude": 22.500941
  },
  {
    "id": 200010,
    "name": "ДВ ХИТ КОМПАНИ ДООЕЛ Штип",
    "agent_id": 133,
    "agent_name": "ДВ ХИТ КОМПАНИ ДООЕЛ",
    "city": "Штип",
    "address": "ул. Сутјеска б.б.",
    "telephone": "078/828-076",
    "latitude": 41.74431714031846,
    "longitude": 22.197043223278797
  },
  {
    "id": 200013,
    "name": "СУПЕРМАРКЕТ ИВА Штип",
    "agent_id": 151,
    "agent_name": "СУПЕРМАРКЕТ ИВА ДООЕЛ",
    "city": "Штип",
    "address": "ул. Сремски Фронт б.б.",
    "telephone": "032/383-001, 078/493-726, 078/393-722",
    "latitude": 41.748947406906254,
    "longitude": 22.198515832263183
  },
  {
    "id": 200015,
    "name": "Тутун Пром Доел 1",
    "agent_id": 18,
    "agent_name": "Тутун Пром Дооел",
    "city": "Штип",
    "address": "ул. Маршал Тито б.б.",
    "telephone": "071/240-230",
    "latitude": 41.73678921195059,
    "longitude": 22.192155219049027
  },
  {
    "id": 221001,
    "name": "Лила Лото",
    "agent_id": 13,
    "agent_name": "Лила Лото",
    "city": "Пробиштип",
    "address": "ул. Јаким Стојковски б.б.",
    "telephone": "075/878-000, 032/482-887",
    "latitude": 41.99621708306182,
    "longitude": 22.185611123309332
  },
  {
    "id": 222005,
    "name": "Венмарк Дооел - Свети Николе",
    "agent_id": 111,
    "agent_name": "Венмарк Дооел",
    "city": "Свети Николе",
    "address": "ул. Плоштад Илинден б.б.",
    "telephone": "075/443-074, 075, 076, 077 032/440-878",
    "latitude": 41.86462927780107,
    "longitude": 21.942039203643844
  },
  {
    "id": 230006,
    "name": "АСТРО ДООЕЛ 1",
    "agent_id": 34,
    "agent_name": "АСТРО ДООЕЛ",
    "city": "Македонска Каменица",
    "address": "ул. Маршал Тито б.б.",
    "telephone": "075/888-104",
    "latitude": 42.02107718882054,
    "longitude": 22.589799882525654
  },
  {
    "id": 230010,
    "name": "ТП АНАФИЛ Кочани",
    "agent_id": 156,
    "agent_name": "ТП АНАФИЛ",
    "city": "Кочани",
    "address": "ул. Димитар Влахов б.б.",
    "telephone": "078/527-171",
    "latitude": 41.91609010308124,
    "longitude": 22.409185799999932
  },
  {
    "id": 230014,
    "name": "ПРАНГОВ Македонска Каменица",
    "agent_id": 230,
    "agent_name": "ПРАНГОВ ДООЕЛ",
    "city": "Македонска Каменица",
    "address": "ул. Маршал Тито б.б.",
    "telephone": "070/213-341",
    "latitude": 42.021243,
    "longitude": 22.5897038
  },
  {
    "id": 230015,
    "name": "БАЛИЛА 1 Кочани",
    "agent_id": 236,
    "agent_name": "БАЛИЛА 1 ДООЕЛ",
    "city": "Кочани",
    "address": "ул. 29-ти Ноември б.б.",
    "telephone": "071/277-649 033/278-322",
    "latitude": 41.9144331,
    "longitude": 22.424255
  },
  {
    "id": 231004,
    "name": "ВИ ВАРДАР Виница",
    "agent_id": 194,
    "agent_name": "ВИ ВАРДАР ДООЕЛ",
    "city": "Виница",
    "address": "ул. Маршал Тито б.б.",
    "telephone": "071/327-276",
    "latitude": 41.88363050147731,
    "longitude": 22.50626421076663
  },
  {
    "id": 232007,
    "name": "ВЕРА-НБ Делчево",
    "agent_id": 195,
    "agent_name": "ВЕРА-НБ",
    "city": "Делчево",
    "address": "ул. Никола Јонков Вапцаров б.б.",
    "telephone": "071/206-372",
    "latitude": 41.97038324656181,
    "longitude": 22.7773802883911
  },
  {
    "id": 232008,
    "name": "ДИМБО КОМ Пехчево",
    "agent_id": 200,
    "agent_name": "ДИМБО КОМ ДООЕЛ",
    "city": "Пехчево",
    "address": "ул. Борис Кидрич бр. 6",
    "telephone": "075/358-188",
    "latitude": 41.70654348051499,
    "longitude": 22.848030819049086
  },
  {
    "id": 233004,
    "name": "БУГИ Берово",
    "agent_id": 184,
    "agent_name": "БУГИ",
    "city": "Берово",
    "address": "ул. Маршал Тито бр. 27",
    "telephone": "033/471-235  071/765-226",
    "latitude": 41.70857903836541,
    "longitude": 22.855641681475845
  },
  {
    "id": 233006,
    "name": "МАРКЕТИ БКБ - Берово",
    "agent_id": 271,
    "agent_name": "МАРКЕТИ БКБ ДООЕЛ",
    "city": "Берово",
    "address": "ул. Маршал Тито бр.10",
    "telephone": "070/359-531",
    "latitude": 41.708067,
    "longitude": 22.856491
  },
  {
    "id": 233007,
    "name": "МАРКЕТИ БКБ - Берово 1",
    "agent_id": 271,
    "agent_name": "МАРКЕТИ БКБ ДООЕЛ",
    "city": "Берово",
    "address": "ул. Борис Кидрич бр.14",
    "telephone": "070/359-531",
    "latitude": 41.70673,
    "longitude": 22.847838
  },
  {
    "id": 233009,
    "name": "МАРКЕТИ БКБ - с. Русино",
    "agent_id": 271,
    "agent_name": "МАРКЕТИ БКБ ДООЕЛ",
    "city": "Берово",
    "address": "ул.Маршал Тито бб с. Русино",
    "telephone": "070/359-531",
    "latitude": 41.687656,
    "longitude": 22.807224
  },
  {
    "id": 240009,
    "name": "ТОТО – ЛОТО 1",
    "agent_id": 31,
    "agent_name": "Тото Лото",
    "city": "Струмица",
    "address": "ул. Младинска б.б.",
    "telephone": "071/259-242",
    "latitude": 41.43227169160848,
    "longitude": 22.648095640258802
  },
  {
    "id": 240014,
    "name": "Ваткос ДООЕЛ - Струмица",
    "agent_id": 110,
    "agent_name": "ВАТКОС ДООЕЛ",
    "city": "Струмица",
    "address": "ул. Благој Мучето б.б.",
    "telephone": "034/324-268;071/640-090",
    "latitude": 41.44115146270039,
    "longitude": 22.638139280395535
  },
  {
    "id": 240015,
    "name": "ФИС-ПРОМ 2008 ДОО - с. Муртино",
    "agent_id": 124,
    "agent_name": "ФИС-ПРОМ 2008 ДОО",
    "city": "Струмица",
    "address": "с. Муртино",
    "telephone": "034/520-351",
    "latitude": 41.416334800968116,
    "longitude": 22.72415090000004
  },
  {
    "id": 240017,
    "name": "ТП РИСТО Б.ЃОРГИЕВ с.Дабиље",
    "agent_id": 144,
    "agent_name": "ТП РИСТО Б.ЃОРГИЕВ",
    "city": "Струмица",
    "address": "с. Дабиље бр. 304",
    "telephone": "070/898-098",
    "latitude": 41.442913166517286,
    "longitude": 22.688568561376997
  },
  {
    "id": 240020,
    "name": "КРЕЧЕВИ ДООЕЛ Струмица",
    "agent_id": 222,
    "agent_name": "КРЕЧЕВИ ДООЕЛ",
    "city": "Струмица",
    "address": "бул. Маршал Тито б.б./до Тинекс",
    "telephone": "078/302-100 и 034/612-918",
    "latitude": 41.438681,
    "longitude": 22.639709
  },
  {
    "id": 240023,
    "name": "КРЕЧЕВИ ДООЕЛ Струмица 1",
    "agent_id": 222,
    "agent_name": "КРЕЧЕВИ ДООЕЛ",
    "city": "Струмица",
    "address": "ул. Маршал Тито б.б.",
    "telephone": "078/302-100 034/612-918",
    "latitude": 41.4277193,
    "longitude": 22.6456171
  },
  {
    "id": 240026,
    "name": "ВАДИМ-ВД Струмица",
    "agent_id": 259,
    "agent_name": "ВАДИМ-ВД ДООЕЛ",
    "city": "Струмица",
    "address": "ул. Ленинова б.б.",
    "telephone": "072/574-407, 070/485-393",
    "latitude": 41.436292,
    "longitude": 22.63752
  },
  {
    "id": 242005,
    "name": "МОМАТРАНС с.Подареш",
    "agent_id": 134,
    "agent_name": "МОМАТРАНС",
    "city": "Радовиш",
    "address": "с. Подареш",
    "telephone": "075/554-770, 032/641-405",
    "latitude": 41.616863797973174,
    "longitude": 22.539107801074238
  },
  {
    "id": 242006,
    "name": "МАКОМ ТРЕФ ПЛУС Радовиш",
    "agent_id": 196,
    "agent_name": "МАКОМ ТРЕФ ПЛУС ДОО",
    "city": "Радовиш",
    "address": "ул. Маршал Тито б.б.",
    "telephone": "032/630-500 ? 033/297-123",
    "latitude": 41.6371689526517,
    "longitude": 22.460482711669897
  },
  {
    "id": 243001,
    "name": "Аида Доел",
    "agent_id": 8,
    "agent_name": "Аида Дооел",
    "city": "Ново Село",
    "address": "ул. Маршал Тито бр. 32",
    "telephone": "075/973-676, 034/355-655",
    "latitude": 41.8527760200909,
    "longitude": 21.623761960327162
  },
  {
    "id": 246002,
    "name": "ЦЕНТАР ДООЕЛ - Валандово",
    "agent_id": 103,
    "agent_name": "ЦЕНТАР ДООЕЛ",
    "city": "Валандово",
    "address": "ул. Маршал Тито бр. 36",
    "telephone": "077/668-886;034/381-534",
    "latitude": 41.3175729283994,
    "longitude": 22.56169045714728
  },
  {
    "id": 600011,
    "name": "ВЛАДИЈА 2011 Охрид",
    "agent_id": 146,
    "agent_name": "ВЛАДИЈА 2011 ДООЕЛ",
    "city": "Охрид",
    "address": "бул. Туристичка 47/13",
    "telephone": "072 230819;070 713137",
    "latitude": 41.117192360340745,
    "longitude": 20.801162568261702
  },
  {
    "id": 600014,
    "name": "ГОРИЧКО КДН ДООЕЛ Охрид",
    "agent_id": 208,
    "agent_name": "ГОРИЧКО КДН ДООЕЛ",
    "city": "Охрид",
    "address": "Булевар Туристичка бр. 77 А/локал 3",
    "telephone": "070/421-028",
    "latitude": 41.117370180411235,
    "longitude": 20.801055279901107
  },
  {
    "id": 625009,
    "name": "АНДРОКО Кичево",
    "agent_id": 172,
    "agent_name": "АНДРОКО ДОО",
    "city": "Кичево",
    "address": "ул. Трајче Стреоски бр. 42",
    "telephone": "045/266-808, 075/576-096",
    "latitude": 41.514113370620585,
    "longitude": 20.957640380859402
  },
  {
    "id": 625011,
    "name": "Детелинка ЈЛ Кичево",
    "agent_id": 237,
    "agent_name": "Детелинка ЈЛ ДООЕЛ",
    "city": "Кичево",
    "address": "ул. Борис Кидрич б.б.",
    "telephone": "071/314-117",
    "latitude": 41.5084528,
    "longitude": 20.9567562
  },
  {
    "id": 633011,
    "name": "КИКИ-ТВИНС 2009 Струга",
    "agent_id": 193,
    "agent_name": "КИКИ-ТВИНС 2009",
    "city": "Струга",
    "address": "ул. Маршал Тито бр. 46",
    "telephone": "078/277-155;070/755-159;046/789-230",
    "latitude": 41.17728121280414,
    "longitude": 20.673592637048387
  },
  {
    "id": 653002,
    "name": "ТОБАКО-ВЕСТ Македонски Брод",
    "agent_id": 241,
    "agent_name": "ТОБАКО-ВЕСТ ДООЕЛ",
    "city": "Македонски Брод",
    "address": "ул. Димитар Влахов бр. 23",
    "telephone": "078/318-389",
    "latitude": 41.5065637,
    "longitude": 21.2174387
  },
  {
    "id": 700010,
    "name": "ДООЕЛ 15-ка-88 1",
    "agent_id": 33,
    "agent_name": "ДООЕЛ 15-ка-88",
    "city": "Битола",
    "address": "ул. Партизанска б.б.",
    "telephone": "047/202-120, 070/883-458",
    "latitude": 41.02263325065737,
    "longitude": 21.333123137512214
  },
  {
    "id": 700018,
    "name": "Легион ДООЕЛ - Битола",
    "agent_id": 109,
    "agent_name": "ЛЕГИОН ДООЕЛ",
    "city": "Битола",
    "address": "ул. Далматинска бр. 58",
    "telephone": "075/652-465, 047/235-516",
    "latitude": 41.03206252153331,
    "longitude": 21.337961842575055
  },
  {
    "id": 700020,
    "name": "САН Битола",
    "agent_id": 158,
    "agent_name": "САН ДООЕЛ",
    "city": "Битола",
    "address": "ул. 4-ти Ноември б.б.",
    "telephone": "070/269-474, 075/957-400, 047/202-733",
    "latitude": 41.02888862134066,
    "longitude": 21.342180953967272
  },
  {
    "id": 700024,
    "name": "КРИСМИ ТРЕЈД Битола",
    "agent_id": 202,
    "agent_name": "КРИСМИ ТРЕЈД",
    "city": "Битола",
    "address": "ул. Маршал Тито бр. 42а",
    "telephone": "078/207-567",
    "latitude": 41.026840914582685,
    "longitude": 21.336637446032682
  },
  {
    "id": 700025,
    "name": "ДИМПО ДООЕЛ Битола",
    "agent_id": 209,
    "agent_name": "ДИМПО ДООЕЛ",
    "city": "Битола",
    "address": "Градско Реонско Шеталиште",
    "telephone": "072/229-776",
    "latitude": 41.0319444,
    "longitude": 21.3347222
  },
  {
    "id": 700026,
    "name": "ВАГАБОНТ Битола",
    "agent_id": 213,
    "agent_name": "ВАГАБОНТ ДООЕЛ",
    "city": "Битола",
    "address": "ул. Широк Сокак бр. 51",
    "telephone": "078/531-195",
    "latitude": 41.028092087014585,
    "longitude": 21.336079419573935
  },
  {
    "id": 700031,
    "name": "МАРИЗА ТОБАКО Битола",
    "agent_id": 255,
    "agent_name": "МАРИЗА ТОБАКО ДООЕЛ",
    "city": "Битола",
    "address": "бул. 1-ви Мај бр. 154ѓ",
    "telephone": "047/227-392 и 076/349-986",
    "latitude": 41.0308988,
    "longitude": 21.3429794
  },
  {
    "id": 700032,
    "name": "АЛЕК ТАБАК Битола",
    "agent_id": 260,
    "agent_name": "АЛЕК ТАБАК",
    "city": "Битола",
    "address": "ул. Партизанска б.б.",
    "telephone": "047/223-835, 078/404-769, 070-694-280",
    "latitude": 41.024528,
    "longitude": 21.322267
  },
  {
    "id": 700033,
    "name": "ИНА-КОМЕРЦ НАТЕ Битола",
    "agent_id": 261,
    "agent_name": "ИНА-КОМЕРЦ НАТЕ",
    "city": "Битола",
    "address": "бул. 1-ви Мај б.б.",
    "telephone": "047/522-895, 075/620-005",
    "latitude": 41.03233,
    "longitude": 21.331751
  },
  {
    "id": 700036,
    "name": "АЛЕК ТАБАК Битола 1",
    "agent_id": 260,
    "agent_name": "АЛЕК ТАБАК",
    "city": "Битола",
    "address": "ул. Прилепска б.б.",
    "telephone": "047/223-835, 078/404-769, 070/694-280",
    "latitude": 41.03246,
    "longitude": 21.34096
  },
  {
    "id": 700037,
    "name": "ПЛАНЕТ ХЈ Битола",
    "agent_id": 272,
    "agent_name": "ПЛАНЕТ ХЈ ДООЕЛ",
    "city": "Битола",
    "address": "ул. Ордан Николов бр. 48 Стара Чаршија",
    "telephone": "070/359-447",
    "latitude": 41.032164,
    "longitude": 21.337599
  },
  {
    "id": 731001,
    "name": "СИМ – КОМЕРЦ 1",
    "agent_id": 41,
    "agent_name": "СИМ - КОМЕРЦ",
    "city": "Ресен",
    "address": "ул. Мите Трповски бр. 6",
    "telephone": "047/551-589, 071/771-700",
    "latitude": 41.089471105669126,
    "longitude": 21.01651373442383
  },
  {
    "id": 750008,
    "name": "КОМПАНИ МЕНАЏЕР - Прилеп",
    "agent_id": 89,
    "agent_name": "КОМПАНИ МЕНАЏЕР",
    "city": "Прилеп",
    "address": "ул. Јане Сандански бр. 19",
    "telephone": "070/402-005, 048/417-881",
    "latitude": 41.34523831900152,
    "longitude": 21.55223728431702
  },
  {
    "id": 750012,
    "name": "ЗАБРАНЕТО ПУШЕЊЕ 2006 - Прилеп",
    "agent_id": 129,
    "agent_name": "ЗАБРАНЕТО ПУШЕЊЕ 2006 ДООЕЛ",
    "city": "Прилеп",
    "address": "ул. Илинденска бр. 73",
    "telephone": "077/515-190, 078/421-183",
    "latitude": 41.34653509609543,
    "longitude": 21.555445206298828
  },
  {
    "id": 750013,
    "name": "АЈ НИКА Прилеп",
    "agent_id": 141,
    "agent_name": "АЈ НИКА ДООЕЛ",
    "city": "Прилеп",
    "address": "ул. Илинденска бр. 30",
    "telephone": "075/997-603",
    "latitude": 41.34646260613192,
    "longitude": 21.55535937561035
  },
  {
    "id": 750014,
    "name": "ТОБАКО ПЛУС Прилеп",
    "agent_id": 240,
    "agent_name": "ТОБАКО ПЛУС ДЈД",
    "city": "Прилеп",
    "address": "ул. Републиканска бр. 55",
    "telephone": "071/204-801",
    "latitude": 41.3454758,
    "longitude": 21.5557551
  },
  {
    "id": 100324,
    "name": "МАКВА-МГ ",
    "agent_id": 278,
    "agent_name": "МАКВА-МГ ДООЕЛ",
    "city": "Скопје",
    "address": "ул. Васил Ѓоргов бб",
    "telephone": "071/388-260",
    "latitude": 41.992974,
    "longitude": 21.417199
  },
  {
    "id": 700038,
    "name": "ЛА ТОБАКО Битола",
    "agent_id": 280,
    "agent_name": "ЛА ТОБАКО ДООЕЛ",
    "city": "Битола",
    "address": "ул. Градско Шеталиште бр. 1",
    "telephone": "070/560-439",
    "latitude": 41.020092,
    "longitude": 21.339288
  },
  {
    "id": 100327,
    "name": "Државна лотарија на Македонија - Маркетинг",
    "agent_id": 225,
    "agent_name": "Државна лотарија на Македонија",
    "city": "Скопје",
    "address": "ул. Гоце Делчев бр. 8",
    "telephone": "",
    "latitude": 42.004443,
    "longitude": 21.391935
  },
  {
    "id": 700039,
    "name": "ЛУНА-ЗЈ Битола ",
    "agent_id": 281,
    "agent_name": "ЛУНА-ЗЈ Битола ДООЕЛ",
    "city": "Битола",
    "address": "ул. Маршал Тито бб",
    "telephone": "075/491-590",
    "latitude": 41.028652,
    "longitude": 21.334765
  },
  {
    "id": 240034,
    "name": "ДПТУ СИЛВИ-КОМЕРЦ Струмица",
    "agent_id": 282,
    "agent_name": "ДПТУ СИЛВИ-КОМЕРЦ ДООЕЛ",
    "city": "Струмица",
    "address": "ул. Гоце Делчев бб",
    "telephone": "075/505-797",
    "latitude": 41.438235,
    "longitude": 22.646213
  },
  {
    "id": 100326,
    "name": "ДТУ ТОБАКО МОРНАР Кисела Вода",
    "agent_id": 284,
    "agent_name": "ДТУ ТОБАКО МОРНАР ДООЕЛ",
    "city": "Скопје",
    "address": "ул. Иван Козаров бр. 32, зграда 3, влез 1 кат ПР",
    "telephone": "077/998-000",
    "latitude": 41.983089,
    "longitude": 21.438984
  },
  {
    "id": 120245,
    "name": "ТОБАКО ТЕА Тетово",
    "agent_id": 286,
    "agent_name": "ТОБАКО ТЕА ДООЕЛ",
    "city": "Тетово",
    "address": "ул. Скопски пат бр. 8",
    "telephone": "070/224-425",
    "latitude": 42.008674,
    "longitude": 20.973222
  },
  {
    "id": 120246,
    "name": "ТОБАКО ТЕА Тетово 1",
    "agent_id": 286,
    "agent_name": "ТОБАКО ТЕА ДООЕЛ",
    "city": "Тетово",
    "address": "ул. Илинденска бр. 226",
    "telephone": "070/224-425",
    "latitude": 41.997648,
    "longitude": 20.961336
  },
  {
    "id": 100333,
    "name": "ЕПРОМ Кјуби",
    "agent_id": 287,
    "agent_name": "ЕПРОМ 1",
    "city": "Скопје",
    "address": "ул. 11-ти Октомври бр. 25",
    "telephone": "071/293-327",
    "latitude": 41.991097,
    "longitude": 21.435013
  },
  {
    "id": 232013,
    "name": "ДИМПРОМ ЈТД Делчево",
    "agent_id": 288,
    "agent_name": "ДИМПРОМ ЈТД",
    "city": "Делчево",
    "address": "бул. Македонија бб",
    "telephone": "070/213-186",
    "latitude": 41.962839,
    "longitude": 22.773627
  },
  {
    "id": 143022,
    "name": "БРАВО НУТС Кавадарци 4",
    "agent_id": 186,
    "agent_name": "БРАВО НУТС",
    "city": "Кавадарци",
    "address": "ул. ЈНА бб",
    "telephone": "071/250-660",
    "latitude": 41.432069,
    "longitude": 22.011555
  },
  {
    "id": 140021,
    "name": "ТОБАКО МАРКО Велес",
    "agent_id": 289,
    "agent_name": "ТОБАКО МАРКО ТП ",
    "city": "Велес",
    "address": "ул. Димитар Влахов бр.17",
    "telephone": "070/216-351",
    "latitude": 41.713679,
    "longitude": 21.786892
  },
  {
    "id": 100335,
    "name": "Лубито Драмски",
    "agent_id": 290,
    "agent_name": "Лубито ДООЕЛ 1",
    "city": "Скопје",
    "address": "ул. Шекспирова бб",
    "telephone": "070/332-609",
    "latitude": 42.003084,
    "longitude": 21.407484
  },
  {
    "id": 100341,
    "name": "Државна лотарија на Македонија - Маркетинг 1",
    "agent_id": 225,
    "agent_name": "Државна лотарија на Македонија",
    "city": "Скопје",
    "address": "ул. Гоце Делчев бр.8",
    "telephone": "",
    "latitude": 42.004483,
    "longitude": 21.391763
  },
  {
    "id": 100348,
    "name": "Државна лотарија на Македонија - Маркетинг 2",
    "agent_id": 225,
    "agent_name": "Државна лотарија на Македонија",
    "city": "Скопје",
    "address": "ул. Гоце Делчев бр.8",
    "telephone": "",
    "latitude": 41.991385,
    "longitude": 21.427819
  },
  {
    "id": 140023,
    "name": "ЈОСЕ-ТОБАККО Велес",
    "agent_id": 292,
    "agent_name": "ЈОСЕ-ТОБАККО",
    "city": "Велес",
    "address": "ул. Благој Ѓорев бр.57",
    "telephone": "070/424-377 и 043/211-388",
    "latitude": 41.714559,
    "longitude": 21.76549
  },
  {
    "id": 100336,
    "name": "ТП ПУНЧО Чаир",
    "agent_id": 293,
    "agent_name": "ТП ПУНЧО",
    "city": "Скопје",
    "address": "ул. Дижонска бр.52",
    "telephone": "070/239-954",
    "latitude": 42.011821,
    "longitude": 21.439698
  },
  {
    "id": 100337,
    "name": "ОКИ МССН ДООЕЛ Аеродром",
    "agent_id": 294,
    "agent_name": "ОКИ МССН ДООЕЛ",
    "city": "Скопје",
    "address": "бул. 3-та Македонска Бригада бр.31/2",
    "telephone": "070/228-216 071/831-888 и 2461-891",
    "latitude": 41.980167,
    "longitude": 21.456047
  },
  {
    "id": 230020,
    "name": "ЕКСТРА ТОБАКО ПЛУС Кочани",
    "agent_id": 298,
    "agent_name": "ЕКСТРА ТОБАКО ПЛУС",
    "city": "Кочани",
    "address": "ул. Маршал Тито бр.1/2",
    "telephone": "071/380-667",
    "latitude": 41.917636,
    "longitude": 22.411436
  },
  {
    "id": 100342,
    "name": "МАРТОН ТП Беверли",
    "agent_id": 299,
    "agent_name": "МАРТОН ТП",
    "city": "Скопје",
    "address": "ул. Васил Ѓоргов бб локал број 20",
    "telephone": "071/390-109",
    "latitude": 41.992633,
    "longitude": 21.419026
  },
  {
    "id": 100343,
    "name": "МИВЕЛ Петровец",
    "agent_id": 300,
    "agent_name": "МИВЕЛ ДООЕЛ",
    "city": "Скопје",
    "address": "ул.1 бр.72 А Петровец",
    "telephone": "076/230-895,075/434-961",
    "latitude": 41.942014,
    "longitude": 21.61963
  },
  {
    "id": 100366,
    "name": "ПРЕСТИЖ ДЕЛУКС",
    "agent_id": 307,
    "agent_name": "ПРЕСТИЖ ДЕЛУКС ДООЕЛ",
    "city": "Скопје",
    "address": "бул. Климент Охридски бр.68",
    "telephone": "077/998-000",
    "latitude": 41.994041,
    "longitude": 21.424288
  },
  {
    "id": 100368,
    "name": "ТП ГОГИ Драчево 2",
    "agent_id": 67,
    "agent_name": "Т.П ГОГИ",
    "city": "Скопје",
    "address": "ул. Бранко Заревски бр. 9б",
    "telephone": "070/242-395,02/2779-094",
    "latitude": 41.938879,
    "longitude": 21.514449
  },
  {
    "id": 100367,
    "name": "Државна лотарија на Македонија - Маркетинг - Т.Ц КАПИТОЛ МОЛ",
    "agent_id": 225,
    "agent_name": "Државна лотарија на Македонија",
    "city": "Скопје",
    "address": "бул. Јане Сандански 71А ТЦ Капитол Мол",
    "telephone": "",
    "latitude": 41.985823,
    "longitude": 21.466746
  },
  {
    "id": 700042,
    "name": "ЛА ТОБАКО Битола 1",
    "agent_id": 280,
    "agent_name": "ЛА ТОБАКО ДООЕЛ",
    "city": "Битола",
    "address": "ул. Александар Турунџиев бр. 46",
    "telephone": "070/560-439",
    "latitude": 41.031925,
    "longitude": 21.339521
  },
  {
    "id": 625013,
    "name": "ДАВСТОМ Кичево",
    "agent_id": 305,
    "agent_name": "ДАВСТОМ ДООЕЛ",
    "city": "Кичево",
    "address": "ул. Маршал Тито бб",
    "telephone": "078/729-709 и 071/542-160",
    "latitude": 41.519837,
    "longitude": 20.962708
  },
  {
    "id": 724004,
    "name": "ЧЕТИРИ ПИВЦИЊА Демир Хисар",
    "agent_id": 309,
    "agent_name": "ЧЕТИРИ ПИВЦИЊА ДООЕЛ",
    "city": "Демир Хисар",
    "address": "ул. Битолска бб",
    "telephone": "075/794-188",
    "latitude": 41.22102,
    "longitude": 21.204027
  },
  {
    "id": 100369,
    "name": "КАМАРАД Веро",
    "agent_id": 313,
    "agent_name": "КАМАРАД ДООЕЛ",
    "city": "Скопје",
    "address": "ул. Митрополит Теодосиј Гологанов бр.76 Верополис",
    "telephone": "071/220-330",
    "latitude": 41.996981,
    "longitude": 21.404846
  },
  {
    "id": 100371,
    "name": "Толлакс Кисела Вода",
    "agent_id": 95,
    "agent_name": "Толлакс",
    "city": "Скопје",
    "address": "ул. Вера Јоциќ бр. 1/лок 2",
    "telephone": "075/426-881 075/426-882",
    "latitude": 41.979107,
    "longitude": 21.440183
  },
  {
    "id": 750023,
    "name": "ЛУНА ШОП Прилеп",
    "agent_id": 317,
    "agent_name": "ЛАНА ШОП ДООЕЛ",
    "city": "Прилеп",
    "address": "ул. Кузман Јосифовски бр. 9",
    "telephone": "078/531-905",
    "latitude": 41.34615,
    "longitude": 21.548614
  },
  {
    "id": 148026,
    "name": "БУЛЕВАР ТОБАКО Гевгелија",
    "agent_id": 320,
    "agent_name": "БУЛЕВАР ТОБАКО ТП",
    "city": "Гевгелија",
    "address": "ул. Деко Ковачевски бр. 37 Б",
    "telephone": "070/320-475",
    "latitude": 41.145197,
    "longitude": 22.495757
  },
  {
    "id": 144202,
    "name": "КУНА-АС 2014 Демир Капија",
    "agent_id": 321,
    "agent_name": "КУНА-АС 2014",
    "city": "Демир Капија",
    "address": "ул. Маршал Тито бб",
    "telephone": "071/834-638",
    "latitude": 41.408784,
    "longitude": 22.243549
  },
  {
    "id": 100378,
    "name": "T.П ГОГИ Кино Вардар",
    "agent_id": 67,
    "agent_name": "Т.П ГОГИ",
    "city": "Скопје",
    "address": "ул. Македонија бр. 13А",
    "telephone": "070/242-395; 02779-094",
    "latitude": 41.992448,
    "longitude": 21.429849
  },
  {
    "id": 633020,
    "name": "МАРСИ 12 ДООЕЛ Струга",
    "agent_id": 322,
    "agent_name": "МАРСИ 12 ДООЕЛ",
    "city": "Струга",
    "address": "ул. 15-ти Корпус бр. 42",
    "telephone": "078/292-712",
    "latitude": 41.175638,
    "longitude": 20.67624
  },
  {
    "id": 100381,
    "name": "Толлакс Медиа Бисер",
    "agent_id": 95,
    "agent_name": "Толлакс",
    "city": "Скопје",
    "address": "бул. Јане Сандански бр. 82 лок 47/тц Бисер",
    "telephone": "075/426-881,075/426-882",
    "latitude": 41.984859,
    "longitude": 21.467145
  },
  {
    "id": 100379,
    "name": "ГАБЕРЦИ-ТРЕЈД - Лептокарија",
    "agent_id": 114,
    "agent_name": "ГАБЕРЦИ-ТРЕЈД ДООЕЛ",
    "city": "Скопје",
    "address": "бул. Партизански одреди бр. 62-Б4/001-012",
    "telephone": "077/878-955",
    "latitude": 42.000381,
    "longitude": 21.414201
  },
  {
    "id": 700048,
    "name": "ДИМПО ДООЕЛ Битола 1",
    "agent_id": 209,
    "agent_name": "ДИМПО ДООЕЛ",
    "city": "Битола",
    "address": "бул. Македонски Просветители бр. 1/1 локал 3",
    "telephone": "072/229-776",
    "latitude": 41.018831,
    "longitude": 21.347902
  },
  {
    "id": 100383,
    "name": "Толлакс Медиа Железничка",
    "agent_id": 95,
    "agent_name": "Толлакс",
    "city": "Скопје",
    "address": "ул. Никола Карев бр. 22",
    "telephone": "075/426-881,075/426-882",
    "latitude": 41.991035,
    "longitude": 21.445362
  },
  {
    "id": 140028,
    "name": "БРАВО НУТС Велес",
    "agent_id": 186,
    "agent_name": "БРАВО НУТС",
    "city": "Велес",
    "address": "ул. Илинденска бр. 1",
    "telephone": "071/250-660",
    "latitude": 41.716144,
    "longitude": 21.785116
  },
  {
    "id": 700049,
    "name": "ВАГАБОНТ Чаршија - Битола  ",
    "agent_id": 213,
    "agent_name": "ВАГАБОНТ ДООЕЛ",
    "city": "Битола",
    "address": "ул. Широк Сокак бр. 51",
    "telephone": "078/531-195",
    "latitude": 41.028891,
    "longitude": 21.336361
  },
  {
    "id": 100382,
    "name": "Државна лотарија на Македонија - Маркетинг - Т.Ц КАПИТОЛ МОЛ 1",
    "agent_id": 225,
    "agent_name": "Државна лотарија на Македонија",
    "city": "Скопје",
    "address": "бул. Јане Сандански 71А ТЦ Капитол Мол",
    "telephone": "",
    "latitude": 41.986133,
    "longitude": 21.466506
  },
  {
    "id": 700050,
    "name": "ЛУНА-ЗЈ Битола 1",
    "agent_id": 281,
    "agent_name": "ЛУНА-ЗЈ Битола ДООЕЛ",
    "city": "Битола",
    "address": "ул. Маршал Тито бр. 119",
    "telephone": "075/491-590",
    "latitude": 41.028949,
    "longitude": 21.335747
  },
  {
    "id": 600029,
    "name": "ГОЛДЕН ТОБАКО Охрид",
    "agent_id": 325,
    "agent_name": "ГОЛДЕН ТОБАКО ДООЕЛ",
    "city": "Охрид",
    "address": "ул. Св. Климент Охридски бр. 43",
    "telephone": "075/355-666",
    "latitude": 41.11299,
    "longitude": 20.799338
  },
  {
    "id": 100384,
    "name": "ЈО-АН ТОБАКО Влае",
    "agent_id": 326,
    "agent_name": "ЈО-АН ТОБАКО ДООЕЛ",
    "city": "Скопје",
    "address": "Ангел Динев бр. 1",
    "telephone": "078/363-151",
    "latitude": 42.006482,
    "longitude": 21.375186
  },
  {
    "id": 100385,
    "name": "ЈО-АН ТОБАКО Цујо",
    "agent_id": 326,
    "agent_name": "ЈО-АН ТОБАКО ДООЕЛ",
    "city": "Скопје",
    "address": "ул. Ѓорче Петров бр. 23А",
    "telephone": "078/363-151",
    "latitude": 42.006575,
    "longitude": 21.342651
  },
  {
    "id": 143024,
    "name": "ТОБАКО ЈОВАНА Кавадарци",
    "agent_id": 327,
    "agent_name": "ТОБАКО ЈОВАНА ДООЕЛ",
    "city": "Кавадарци",
    "address": "ул. 7-ми Септември бр. 52е",
    "telephone": "072/314-687",
    "latitude": 41.434449,
    "longitude": 22.01546
  },
  {
    "id": 100387,
    "name": "БЕТА - ХИТ КОМПАНИ Чешма",
    "agent_id": 328,
    "agent_name": "БЕТА - ХИТ КОМПАНИ ДООЕЛ",
    "city": "Скопје",
    "address": "ул. Иван Козаров бр. 54",
    "telephone": "078/644-513",
    "latitude": 41.983125,
    "longitude": 21.439027
  },
  {
    "id": 240040,
    "name": "АЛМА ИЛИЕВИ ТРЕЈД Струмица",
    "agent_id": 330,
    "agent_name": "АЛМА ИЛИЕВИ ТРЕЈД ДООЕЛ",
    "city": "Струмица",
    "address": "ул. Маршал Тито бр. 26",
    "telephone": "076/238-700",
    "latitude": 41.436124,
    "longitude": 22.640561
  },
  {
    "id": 140029,
    "name": "ДАВИСА МИЦЕВ Велес",
    "agent_id": 329,
    "agent_name": "ДАВИСА МИЦЕВ ДООЕЛ",
    "city": "Велес",
    "address": "ул. Петре Прличко бр. 14",
    "telephone": "078/402-978",
    "latitude": 41.717874,
    "longitude": 21.775365999999998
  },
  {
    "id": 200024,
    "name": "ПАВЕЛ КОМПАНИ Штип",
    "agent_id": 331,
    "agent_name": "ПАВЕЛ КОМПАНИ ДОО",
    "city": "Штип",
    "address": "ул. Ванчо Прќе бб",
    "telephone": "070/210-103",
    "latitude": 41.738267,
    "longitude": 22.193745
  },
  {
    "id": 700051,
    "name": "НИКА 2017 Битола",
    "agent_id": 333,
    "agent_name": "НИКА 2017 ДООЕЛ",
    "city": "Битола",
    "address": "Булевар 1-ви Мај бр. 15",
    "telephone": "075/433-427",
    "latitude": 41.032122,
    "longitude": 21.325264
  },
  {
    "id": 100390,
    "name": "Толлакс Поло Маркет",
    "agent_id": 95,
    "agent_name": "Толлакс",
    "city": "Скопје",
    "address": "ул. Павел Шатев бр. 12",
    "telephone": "075/426-881,075/426-882",
    "latitude": 41.987412,
    "longitude": 21.431381
  },
  {
    "id": 100391,
    "name": "СВО ТРЕНД",
    "agent_id": 335,
    "agent_name": "СВО ТРЕНД ДООЕЛ",
    "city": "Скопје",
    "address": "ул. Лондонска бр. 4г",
    "telephone": "071/527-847",
    "latitude": 42.000664,
    "longitude": 21.391786
  },
  {
    "id": 130033,
    "name": "ТП ПАВЕЛ ТОБАКО Куманово 1",
    "agent_id": 212,
    "agent_name": "ТП ПАВЕЛ ТОБАКО",
    "city": "Куманово",
    "address": "ул. Плоштад Маршал Тито бр. 35",
    "telephone": "070/553-149",
    "latitude": 42.135417,
    "longitude": 21.719524
  },
  {
    "id": 625019,
    "name": "БОЕЛИ КОМПАНИ ДООЕЛ",
    "agent_id": 334,
    "agent_name": "БОЕЛИ КОМПАНИ ДООЕЛ",
    "city": "Кичево",
    "address": "бул. Ослободување бр. 99А",
    "telephone": "078/228-560",
    "latitude": 41.512712,
    "longitude": 20.960276
  },
  {
    "id": 100392,
    "name": "Толлакс ГТЦ 1",
    "agent_id": 95,
    "agent_name": "Толлакс",
    "city": "Скопје",
    "address": "ул. 13-ти Номври бр. 2. акс 2/лок. 21 (1/2 приземје)",
    "telephone": "075/426-882",
    "latitude": 41.99508,
    "longitude": 21.433622
  },
  {
    "id": 633021,
    "name": "Марси 12 ДООЕЛ 1 Струга ",
    "agent_id": 322,
    "agent_name": "МАРСИ 12 ДООЕЛ",
    "city": "Струга",
    "address": "ул. Маршал Тито бр. 35",
    "telephone": "078/292-712",
    "latitude": 41.177577,
    "longitude": 20.676074
  },
  {
    "id": 100394,
    "name": "ИВ КРЕАТИВ 2016 ДООЕЛ",
    "agent_id": 336,
    "agent_name": "ИВ КРЕАТИВ 2016 ДООЕЛ",
    "city": "Скопје",
    "address": "ул. Димитар Туриманџоски бр. 1/3, лок 10а/ТЦ Лисиче",
    "telephone": "070/317-668",
    "latitude": 41.975487,
    "longitude": 21.472425
  },
  {
    "id": 100395,
    "name": "МАКСИМИЛ ТРЕЈД Бисер",
    "agent_id": 337,
    "agent_name": "МАКСИМИЛ ТРЕЈД ДООЕЛ",
    "city": "Скопје",
    "address": "бул. Јане Сандански бр. 82/2",
    "telephone": "076/223-211",
    "latitude": 41.984772,
    "longitude": 21.467476
  }
]